id,name,latitude,longitude
30001,Custer Rest Area,48.909127,-122.62203
30002,Bow Rest Area,48.58233,-122.344314
30003,Marysville Rest Area,48.168848,-122.188868
30004,Federal Way Rest Area,47.271133,-122.314556
30005,Rochester Rest Area,46.835349,-122.98525
30006,Castle Rock Rest Area,46.350905,-122.904318
30007,Ridgefield Rest Area,45.77708,-122.669537
30008,Wilsonville Rest Area,45.271126,-122.775426
30009,Albany Rest Area,44.739341,-123.050775
30010,Harrisburg Rest Area,44.235651,-123.059943
30011,Cottage Grove Rest Area,43.849918,-123.020517
30012,Oakland Rest Area,43.46945,-123.315479
30013,Grants Pass Rest Area,42.516749,-123.363436
30014,Ashland Welcome Center,42.167689,-122.652533
30015,Weed Rest Area,41.4765,-122.4544
30016,O'Brien Rest Area,40.7927,-122.3159
30017,Red Bluff Rest Area,40.2499,-122.2605
30018,Corning Rest Area,39.945,-122.1993
30019,Willows Rest Area,39.5909,-122.2091
30020,Maxwell Rest Area,39.2394,-122.1812
30021,Dunnigan Rest Area,38.8901,-121.9771
30022,Westley Rest Area,37.5826,-121.3221
30023,Firebaugh Rest Area,36.8625,-120.7816
30024,Huron Rest Area,36.0878,-120.1126
30025,Buttonwillow Rest Area,35.4169,-119.4212
30026,Lebec Rest Area,34.8259,-118.8724
30027,Oceanside Rest Area,33.2672,-117.4345
30028,Oceanside Welcome Center,33.2028,-117.3841
30029,Dutton Rest Area,47.925072,-111.730722
30030,Wolf Creek Rest Area,47.130879,-111.901624
30031,Jefferson City Rest Area,46.40652,-112.013144
30032,Divide Rest Area,45.83509,-112.68355
30033,Blackfoot Rest Area,43.303162,-112.268878
30034,Malad City Welcome Center,42.100419,-112.215177
30035,Perry Rest Area,41.466987,-112.053217
30036,Paragonah Rest Area,37.980988,-112.735877
30037,Kanarraville Rest Area,37.513416,-113.211325
30038,Nipton Rest Area,35.433773,-115.699281
30039,Barstow Rest Area,35.031739,-116.470046
30040,Rimrock Rest Area,34.672331,-111.772399
30041,Green Valley Rest Area,31.765804,-111.03465
30042,Maxwell Rest Area,36.645321,-104.499445
30043,Watrous Rest Area,35.865508,-104.87944
30044,Santa Fe Rest Area,35.52739,-106.156203
30045,San Acacia Rest Area,34.303206,-106.889679
30046,Socorro Rest Area,33.621285,-107.137666
30047,Rincon Rest Area,32.551062,-106.920562
30048,Abernathy Rest Area,33.935465,-101.853119
30049,Grafton Rest Area,48.458494,-97.193878
30050,Hillsboro Rest Area,47.332975,-97.048016
30051,Hankinson Welcome Center,45.978246,-96.83463
30052,Sergeant Bluff Rest Area,42.374482,-96.352572
30053,Onawa Rest Area,41.993306,-96.109737
30054,Missouri Valley Rest Area,41.5841,-95.941458
30055,Pacific Junction Rest Area,41.079943,-95.825717
30056,Dearborn Rest Area,39.476279,-94.786485
30057,Mahtowa Rest Area,46.559434,-92.59701
30058,Sandstone Rest Area,46.211294,-92.837482
30059,Harris Rest Area,45.599219,-92.993255
30060,Faribault Rest Area,44.450726,-93.289892
30061,Owatonna Rest Area,43.987681,-93.25269
30062,Albert Lea Welcome Center,43.515773,-93.352923
30063,Story City Rest Area,42.128354,-93.553421
30064,Cambridge Rest Area,41.829234,-93.569351
30065,Osceola Rest Area,41.013303,-93.794988
30066,Coffey Rest Area,40.11655,-94.060403
30067,Holt Rest Area,39.474543,-94.310462
30068,Williamsburg Rest Area,38.525126,-95.40579
30069,Matfield Green Service Plaza,38.095343,-96.579539
30070,Towanda Service Plaza,37.766191,-96.981528
30071,Belle Plaine Service Plaza,37.367018,-97.322422
30072,Blackwell Rest Area,36.849766,-97.343348
30073,Thackerville Welcome Center,33.771401,-97.13377
30074,Hillsboro Rest Area,31.917422,-97.096553
30075,Salado Rest Area,30.901848,-97.559389
30076,Natalia Rest Area,29.197162,-98.825974
30077,Cotulla Rest Area,28.324314,-99.274425
30078,Whitsett Rest Area,28.60505,-98.221038
30079,Westfield Rest Area,43.950453,-89.483047
30080,Poynette Rest Area,43.425051,-89.47654
30081,Beloit Welcome Center,42.505442,-88.984351
30082,Paw Paw Rest Area,41.723983,-89.007529
30083,Lomira Rest Area,43.557603,-88.427332
30084,Denmark Rest Area,44.322438,-87.815497
30085,Elkhorn Rest Area,42.722142,-88.462786
30086,Richland Rest Area,31.912206,-96.393706
30087,Huntsville Rest Area,30.783666,-95.658671
30088,Pontiac Rest Area,40.822918,-88.687561
30089,McLean Rest Area,40.359574,-89.109688
30090,Springfield Rest Area,39.864761,-89.595077
30091,Waggoner Rest Area,39.346472,-89.640941
30092,Edwardsville Welcome Center,38.864988,-89.853462
30093,Bloomsdale Rest Area,38.031255,-90.248625
30094,Hayti Welcome Center,36.251159,-89.727813
30095,Memphis Welcome Center,35.041684,-90.004116
30096,Hernando Rest Area,34.77072,-89.963828
30097,Courtland Rest Area,34.248159,-89.925279
30098,West Rest Area,33.186899,-89.837247
30099,Wesson Rest Area,31.76908,-90.433469
30100,Magnolia Welcome Center,31.047459,-90.49535
30101,Monee Welcome Center,41.389327,-87.773357
30102,Loda Rest Area,40.550791,-88.060759
30103,Pesotum Rest Area,39.922023,-88.298584
30104,Effingham Rest Area,39.189944,-88.502994
30105,Salem Rest Area,38.596322,-88.964179
30106,Benton Rest Area,38.030788,-88.924082
30107,Anna Welcome Center,37.466221,-89.132421
30108,Ashville Rest Area,33.85167,-86.306549
30109,Cottondale Rest Area,33.188804,-87.324509
30110,Eutaw Rest Area,32.844447,-87.952683
30111,Cuba Welcome Center,32.449904,-88.396747
30112,Picayune Welcome Center,30.497034,-89.66888
30113,Roselawn Rest Area,41.164793,-87.271158
30114,Wolcott Rest Area,40.698869,-87.062666
30115,Lebanon Rest Area,40.15765,-86.53945
30116,Columbus Rest Area,39.259772,-85.952452
30117,Henryville Rest Area,38.584998,-85.776856
30118,Munfordville Rest Area,37.238408,-85.927595
30119,Franklin Welcome Center,36.643512,-86.569152
30120,Ardmore Welcome Center,35.035228,-86.877811
30121,Cullman Rest Area,34.07464,-86.863925
30122,Clanton Rest Area,32.905048,-86.634013
30123,Greenville Rest Area,31.88306,-86.60805
30124,Castleberry Rest Area,31.338484,-87.10953
30125,Attica Rest Area,43.005871,-83.218271
30126,Swartz Creek Rest Area,42.964065,-83.866279
30127,Potterville Rest Area,42.635096,-84.715872
30128,Coldwater Welcome Center,41.849065,-84.995223
30129,Auburn Rest Area,41.296095,-85.086788
30130,Gaston Rest Area,40.353586,-85.557997
30131,Brunswick Rest Area,41.221648,-81.793004
30132,West Salem Rest Area,40.937373,-82.10319
30133,Columbus Rest Area,40.221541,-82.928686
30134,Jeffersonville Rest Area,39.637917,-83.566959
30135,Lebanon Welcome Center,39.414115,-84.124315
30136,Florence Rest Area,38.937079,-84.631043
30137,Crestwood Rest Area,38.338146,-85.516266
30138,Sault Sainte Marie Rest Area,46.424231,-84.391593
30139,Saint Ignace Welcome Center,45.849935,-84.722402
30140,Topinabee Rest Area,45.503178,-84.614178
30141,Gaylord Rest Area,44.96807,-84.670842
30142,Grayling Rest Area,44.612566,-84.705085
30143,West Branch Rest Area,44.231968,-84.211483
30144,Linwood Rest Area,43.761568,-84.018219
30145,Clio Rest Area,43.156342,-83.761602
30146,Davisburg Rest Area,42.762934,-83.510159
30147,Monroe Welcome Center,41.863542,-83.404674
30148,Bowling Green Welcome Center,41.34056,-83.623914
30149,Findlay Rest Area,40.9849,-83.712088
30150,Wapakoneta Rest Area,40.598575,-84.1574
30151,Piqua Rest Area,40.127944,-84.214563
30152,Monroe Welcome Center,39.416934,-84.348534
30153,Florence Rest Area,38.937079,-84.631043
30154,Georgetown Rest Area,38.248098,-84.545917
30155,Williamsburg Welcome Center,36.616117,-84.105655
30156,Athens Rest Area,35.426569,-84.687728
30157,Chattanooga Welcome Center,34.995953,-85.206775
30158,Adairsville Rest Area,34.408657,-84.917606
30159,Vienna Rest Area,32.07357,-83.761968
30160,Ashburn Rest Area,31.750751,-83.661638
30161,Lenox Rest Area,31.243311,-83.465335
30162,Valdosta Welcome Center,30.665664,-83.208856
30163,Lake City Rest Area,29.977347,-82.577234
30164,Micanopy Rest Area,29.590723,-82.361701
30165,Ocala Rest Area,29.093012,-82.183815
30166,Bushnell Rest Area,28.584109,-82.212334
30167,Wesley Chapel Rest Area,28.216322,-82.368528
30168,Ruskin Rest Area,27.682648,-82.420805
30169,Immokalee Rest Area,26.167499,-81.078477
30170,Weston Rest Area,26.145477,-80.626879
30171,Bath Rest Area,41.194726,-81.624743
30172,Buffalo Rest Area,39.940783,-81.53234
30173,Marietta Welcome Center,39.452138,-81.438135
30174,Mineral Wells Rest Area,39.131313,-81.546988
30175,Burnwell Service Plaza,38.102062,-81.383082
30176,Princeton Service Plaza,37.474675,-81.068101
30177,Rocky Gap Rest Area,37.185155,-81.129047
30178,Lambsburg Welcome Center,36.564024,-80.743222
30179,Charlotte Welcome Center,35.122529,-80.916249
30180,Richburg Rest Area,34.763714,-81.035825
30181,Edinboro Rest Area,41.842327,-80.174899
30182,Sheakleyville Rest Area,41.455467,-80.161721
30183,Grove City Rest Area,41.070504,-80.124154
30184,Bridgeville Rest Area,40.331662,-80.137175
30185,Mount Morris Welcome Center,39.796245,-80.076218
30186,Bridgeport Rest Area,39.31413,-80.250019
30187,Burnsville Rest Area,38.912078,-80.592336
30188,Frametown Rest Area,38.619057,-80.90025
30189,La Fargeville Rest Area,44.243223,-75.943328
30190,Preble Rest Area,42.715436,-76.145797
30191,Kirkwood Welcome Center,42.020172,-75.780058
30192,Fleetville Rest Area,41.60335,-75.64678
30193,Dorrance Rest Area,41.102023,-75.960107
30194,Grantville Rest Area,40.373276,-76.676612
30195,Carlisle Rest Area,40.132396,-77.342056
30196,Greencastle Welcome Center,39.736302,-77.726212
30197,Inwood Welcome Center,39.320941,-78.071003
30198,New Market Rest Area,38.614106,-78.705976
30199,Mount Sydney Rest Area,38.250116,-78.954448
30200,Elliston Rest Area,37.239516,-80.22455
30201,Radford Rest Area,37.098141,-80.523584
30202,Rural Retreat Rest Area,36.916479,-81.264249
30203,Abingdon Rest Area,36.684211,-82.029762
30204,Bristol Welcome Center,36.596584,-82.23951
30205,Baileyton Rest Area,36.336684,-82.805028
30206,Shrewsbury Welcome Center,39.752837,-76.661693
30207,Dinwiddie Rest Area,37.100551,-77.543583
30208,Alberta Rest Area,36.863056,-77.838245
30209,Bracey Welcome Center,36.553918,-78.179688
30210,Oxford Rest Area,36.235703,-78.637954
30211,Burlington Rest Area,36.062554,-79.535181
30212,Thomasville Rest Area,35.840493,-80.134021
30213,Concord Rest Area,35.451025,-80.594294
30214,Grover Welcome Center,35.183319,-81.407285
30215,Anderson Rest Area,34.565927,-82.740894
30216,Fair Play Welcome Center,34.487319,-83.023006
30217,West Point Welcome Center,32.859667,-85.172333
30218,Tuskegee Rest Area,32.497942,-85.613355
30219,West Chazy Rest Area,44.805386,-73.443363
30220,Peru Rest Area,44.604422,-73.491152
30221,North Hudson Rest Area,44.01376,-73.705177
30222,Glens Falls Rest Area,43.272641,-73.674259
30223,Clifton Park Rest Area,42.877292,-73.777094
30224,New Baltimore Service Plaza,42.428249,-73.806015
30225,Saugerties Service Plaza,42.110567,-73.956692
30226,Newburgh Service Plaza,41.577525,-74.085269
30227,Suffern Service Plaza,41.151262,-74.18827
30228,Ardsley Service Plaza,40.984889,-73.852685
30229,Georgia Rest Area,44.746569,-73.077928
30230,Williston Rest Area,44.436176,-73.078755
30231,Sharon Welcome Center,43.72735,-72.425671
30232,Springfield Rest Area,43.467943,-72.101899
30233,Bradford Rest Area,44.015831,-72.120303
30234,Brattleboro Welcome Center,42.812221,-72.566439
30235,Middletown Rest Area,41.553891,-72.742464
30236,Waterford Welcome Center,44.361016,-71.89788
30237,Tilton Rest Area,43.372068,-71.608445
30238,Hooksett Service Plaza,43.110397,-71.475699
30239,Salem Welcome Center,42.755102,-71.220623
30240,Medway Rest Area,45.596219,-68.535083
30241,Hampden Welcome Center,44.7655,-68.9364
30242,Gardiner Service Plaza,44.2089,-69.8282
30243,Cumberland Center Service Plaza,43.824536,-70.32026
30244,Kennebunk Service Plaza,43.410434,-70.558459
30245,Kittery Welcome Center,43.128289,-70.717253
30246,Seabrook Welcome Center,42.88463,-70.880812
30247,Lexington Service Plaza,42.440235,-71.257613
30248,Madison Service Plaza,41.291508,-72.580151
30249,Branford Service Plaza,41.285531,-72.8339
30250,Milford Service Plaza,41.246523,-73.008602
30251,Fairfield Service Plaza,41.146584,-73.25595
30252,Darien Service Plaza,41.080712,-73.461226
30253,Ridgefield Service Plaza,40.822894,-74.029814
30254,Woodbridge Service Plaza,40.557065,-74.263362
30255,East Brunswick Service Plaza,40.417015,-74.444047
30256,Linwood Welcome Center,39.823919,-75.437495
30257,Newark Service Plaza,39.662352,-75.690957
30258,Perryville Service Plaza,39.6096,-76.0117
30259,Aberdeen Service Plaza,39.4953,-76.2337
30260,Savage Welcome Center,39.1394,-76.8465
30261,Dale City Rest Area,38.619398,-77.296425
30262,Dale City Rest Area,38.599309,-77.312633
30263,Ladysmith Rest Area,37.980759,-77.492101
30264,Carson Rest Area,37.015332,-77.390557
30265,Skippers Welcome Center,36.546834,-77.575212
30266,Dortches Rest Area,36.025508,-77.847617
30267,Selma Rest Area,35.536261,-78.25213
30268,Fayetteville Rest Area,34.996513,-78.827491
30269,Rowland Welcome Center,34.5382,-79.235579
30270,Shiloh Rest Area,33.947477,-80.05624
30271,Santee Rest Area,33.495824,-80.463818
30272,Walterboro Rest Area,32.801577,-80.770475
30273,Hardeeville Welcome Center,32.266495,-81.086667
30274,Saint Marys Welcome Center,30.753754,-81.650138
30275,Jacksonville Rest Area,30.091276,-81.496922
30276,Saint Augustine Rest Area,29.702069,-81.326915
30277,Mims Rest Area,28.686794,-80.877453
30278,Malabar Rest Area,27.933804,-80.603712
30279,Fort Pierce Rest Area,27.466034,-80.417707
30280,Palm City Rest Area,27.128097,-80.332953
30281,Wildwood Service Plaza,28.786799,-81.982224
30282,Orlando Service Plaza,28.514581,-81.499256
30283,Saint Cloud Service Plaza,28.094541,-81.273955
30284,Okeechobee Service Plaza,27.601898,-80.822887
30285,Port St. Lucie Service Plaza,27.302792,-80.373068
30286,West Palm Beach Service Plaza,26.63446,-80.174811
30287,Pompano Beach Service Plaza,26.226452,-80.182833
30288,Miami Service Plaza,25.661689,-80.387002
30289,Ridgefield Service Plaza,40.822829,-74.029751
30290,Woodbridge Service Plaza,40.556974,-74.26327
30291,East Brunswick Service Plaza,40.416753,-74.444031
30292,Hamilton Service Plaza,40.176229,-74.628715
30293,Mt. Laurel Service Plaza,39.980904,-74.888496
30294,Oldmans Service Plaza,39.695823,-75.396298
30295,McPherson Rest Area,38.481792,-97.620076
30296,Sedgwick Rest Area,37.931331,-97.326974
30297,Richfield Rest Area,41.208144,-81.668535
30298,Saint Petersburg Rest Area,27.648418,-82.675581
30299,Terra Ceia Rest Area,27.584602,-82.61415
30300,Burlingame Rest Area,37.539245,-122.364294
30301,South Holland Service Plaza,41.579603,-87.59915
30302,Deepwater Welcome Center,39.686374,-75.474977
30303,Emporia Service Plaza,38.471138,-96.184719
30304,Cedar Rapids Rest Area,41.867932,-91.668332
30305,Laurens Rest Area,34.542551,-81.967946
30306,Groveland Rest Area,42.727662,-77.829165
30307,Plainfield Service Plaza,41.754048,-71.877036
30308,Macon Rest Area,32.86706,-83.753857
30309,Albrightsville Service Plaza,40.970729,-75.631087
30310,Allentown Service Plaza,40.574702,-75.558077
30311,Chelmsford Rest Area,42.595996,-71.368194
30312,Brewster Rest Area,41.36181,-73.631109
30313,Custer Rest Area,48.926668,-122.646182
30314,Bow Rest Area,48.584669,-122.346532
30315,Marysville Rest Area,48.169107,-122.194277
30316,Everett Rest Area,47.902451,-122.215572
30317,Maytown Rest Area,46.871095,-122.970358
30318,Castle Rock Rest Area,46.35233,-122.907977
30319,Ridgefield Rest Area,45.799147,-122.680607
30320,Wilsonville Rest Area,45.274463,-122.7756
30321,Albany Rest Area,44.740724,-123.05358
30322,Harrisburg Rest Area,44.237583,-123.061589
30323,Cottage Grove Rest Area,43.852084,-123.021492
30324,Oakland Rest Area,43.47651,-123.320564
30325,Grants Pass Rest Area,42.517351,-123.365086
30326,Talent Rest Area,42.255924,-122.7877
30327,Weed Rest Area,41.4784,-122.457
30328,Lakehead Rest Area,40.919,-122.3989
30329,Red Bluff Rest Area,40.2712,-122.2706
30330,Corning Rest Area,39.9488,-122.2012
30331,Willows Rest Area,39.594,-122.2095
30332,Maxwell Rest Area,39.2428,-122.1824
30333,Dunnigan Rest Area,38.8941,-121.98
30334,Sacramento Rest Area,38.6724,-121.6139
30335,Westley Rest Area,37.5824,-121.3238
30336,Firebaugh Rest Area,36.8642,-120.784
30337,Huron Rest Area,36.0912,-120.1171
30338,Buttonwillow Rest Area,35.4189,-119.4254
30339,Lebec Rest Area,34.8292,-118.8708
30340,Oceanside Rest Area,33.2744,-117.4445
30341,Oceanside Welcome Center,33.2028,-117.3841
30342,Dutton Rest Area,47.924837,-111.735268
30343,Wolf Creek Rest Area,47.132395,-111.901408
30344,Jefferson City Rest Area,46.415611,-112.006449
30345,Divide Rest Area,45.836458,-112.686018
30346,Blackfoot Rest Area,43.305363,-112.27037
30347,Downey Rest Area,42.352385,-112.225383
30348,Brigham City Welcome Center,41.552389,-112.07043
30349,Paragonah Rest Area,37.981916,-112.738165
30350,Kanarraville Rest Area,37.516713,-113.212399
30351,Nipton Rest Area,35.435629,-115.701915
30352,Barstow Rest Area,35.034647,-116.470658
30353,Rimrock Rest Area,34.674136,-111.772606
30354,Green Valley Rest Area,31.770859,-111.034488
30355,Maxwell Rest Area,36.649918,-104.500689
30356,Watrous Rest Area,35.877993,-104.859021
30357,San Acacia Rest Area,34.305562,-106.890574
30358,Socorro Rest Area,33.622598,-107.138825
30359,Rincon Rest Area,32.552423,-106.923491
30360,Abernathy Rest Area,33.934064,-101.854262
30361,Grafton Rest Area,48.458494,-97.193878
30362,Hillsboro Rest Area,47.331725,-97.051115
30363,New Effington Welcome Center,45.907799,-96.864056
30364,Sergeant Bluff Welcome Center,42.375155,-96.355137
30365,Onawa Rest Area,41.992628,-96.111476
30366,Missouri Valley Rest Area,41.591667,-95.953503
30367,Pacific Junction Rest Area,41.081965,-95.829193
30368,Rock Port Welcome Center,40.394338,-95.549658
30369,Dearborn Rest Area,39.476237,-94.788202
30370,Willow River Rest Area,46.356788,-92.806111
30371,Forest Lake Rest Area,45.270241,-93.009298
30372,Elko Rest Area,44.551096,-93.300808
30373,Owatonna Rest Area,43.986338,-93.257615
30374,Story City Rest Area,42.110241,-93.556806
30375,Cambridge Rest Area,41.832551,-93.572677
30376,Osceola Rest Area,41.013664,-93.797108
30377,Eagleville Welcome Center,40.550495,-93.954903
30378,Coffey Rest Area,40.116771,-94.062316
30379,Holt Rest Area,39.482708,-94.307573
30380,Williamsburg Rest Area,38.527325,-95.405682
30381,Matfield Green Service Plaza,38.095343,-96.579539
30382,Towanda Service Plaza,37.766191,-96.981528
30383,Belle Plaine Service Plaza,37.367018,-97.322422
30384,Blackwell Welcome Center,36.850038,-97.345798
30385,Gainesville Welcome Center,33.693346,-97.163041
30386,Hillsboro Rest Area,31.926064,-97.103001
30387,Salado Rest Area,30.913014,-97.5525
30388,Natalia Rest Area,29.199036,-98.824765
30389,Cotulla Rest Area,28.324172,-99.276592
30390,Whitsett Rest Area,28.649351,-98.242604
30391,Coloma Rest Area,43.977697,-89.501957
30392,Poynette Rest Area,43.428869,-89.483297
30393,Janesville Rest Area,42.768654,-89.006713
30394,South Beloit Welcome Center,42.480351,-88.997208
30395,Paw Paw Rest Area,41.727615,-89.011294
30396,Lomira Rest Area,43.561315,-88.431479
30397,Denmark Rest Area,44.318123,-87.815171
30398,Elkhorn Rest Area,42.733357,-88.460941
30399,Richland Rest Area,31.911008,-96.396316
30400,Huntsville Rest Area,30.781106,-95.660652
30401,Pontiac Rest Area,40.837205,-88.682977
30402,McLean Rest Area,40.359574,-89.109688
30403,Sherman Rest Area,39.887194,-89.596775
30404,Waggoner Rest Area,39.352053,-89.644478
30405,Edwardsville Rest Area,38.872308,-89.851252
30406,Jackson Rest Area,37.491184,-89.673714
30407,Marston Rest Area,36.538093,-89.594151
30408,Blytheville Welcome Center,35.942114,-89.875249
30409,Hernando Welcome Center,34.806646,-89.970364
30410,Courtland Rest Area,34.253686,-89.928086
30411,Vaiden Rest Area,33.305258,-89.784028
30412,Wesson Rest Area,31.771082,-90.434894
30413,Kentwood Welcome Center,30.983276,-90.509794
30414,Monee Welcome Center,41.391672,-87.774531
30415,Loda Rest Area,40.561054,-88.061108
30416,Pesotum Rest Area,39.931331,-88.304684
30417,Effingham Rest Area,39.199069,-88.50173
30418,Salem Rest Area,38.596393,-88.967274
30419,Whittington Rest Area,38.094853,-88.913633
30420,Anna Rest Area,37.46924,-89.133393
30421,Valley Head Welcome Center,34.707879,-85.560415
30422,Ashville Rest Area,33.873184,-86.2715
30423,Cottondale Rest Area,33.190672,-87.325045
30424,Eutaw Rest Area,32.857756,-87.940912
30425,Toomsuba Welcome Center,32.411098,-88.534524
30426,Pearl River Welcome Center,30.322244,-89.738452
30427,Roselawn Rest Area,41.167215,-87.274723
30428,Wolcott Rest Area,40.698762,-87.064619
30429,Lebanon Rest Area,40.17247,-86.552446
30430,Columbus Rest Area,39.277381,-85.957001
30431,Henryville Rest Area,38.586013,-85.780837
30432,Shepherdsville Welcome Center,37.946615,-85.690068
30433,Munfordville Rest Area,37.238903,-85.929052
30434,Mitchellville Welcome Center,36.63555,-86.573105
30435,Ardmore Welcome Center,34.953845,-86.892363
30436,Cullman Rest Area,34.07464,-86.863925
30437,Clanton Rest Area,32.906799,-86.637904
30438,Greenville Rest Area,31.884572,-86.610024
30439,Evergreen Rest Area,31.372303,-87.051415
30440,Port Huron Welcome Center,42.988911,-82.474104
30441,Capac Rest Area,42.993302,-82.957113
30442,Woodbury Rest Area,42.81173,-84.306649
30443,Marshall Rest Area,42.329176,-84.992149
30444,Angola Welcome Center,41.580325,-85.059689
30445,Gaston Rest Area,40.357633,-85.559666
30446,Brunswick Rest Area,41.210051,-81.794148
30447,West Salem Rest Area,40.940208,-82.09996
30448,Columbus Rest Area,40.226689,-82.929916
30449,Jeffersonville Rest Area,39.636794,-83.573522
30450,Lebanon Welcome Center,39.415844,-84.122576
30451,Florence Rest Area,38.938889,-84.633656
30452,Crestwood Rest Area,38.339438,-85.517903
30453,Saint Ignace Rest Area,45.883188,-84.744841
30454,Hebron Rest Area,45.657113,-84.637448
30455,Vanderbilt Rest Area,45.106542,-84.689484
30456,Grayling Rest Area,44.750531,-84.7098
30457,Roscommon Rest Area,44.394063,-84.601332
30458,Alger Rest Area,44.11224,-84.120111
30459,Bay City Rest Area,43.528194,-83.943773
30460,Clio Rest Area,43.157867,-83.767123
30461,Clarkston Rest Area,42.743036,-83.485859
30462,Bowling Green Welcome Center,41.335665,-83.627269
30463,Findlay Rest Area,40.986524,-83.71372
30464,Wapakoneta Rest Area,40.600089,-84.15875
30465,Piqua Rest Area,40.13285,-84.216817
30466,Monroe Rest Area,39.420341,-84.349339
30467,Florence Rest Area,38.938889,-84.633656
30468,Georgetown Rest Area,38.250205,-84.549088
30469,Jellico Welcome Center,36.588393,-84.106206
30470,Athens Rest Area,35.429341,-84.689262
30471,Ringgold Welcome Center,34.94872,-85.176744
30472,Calhoun Rest Area,34.563301,-84.944299
30473,Forsyth Rest Area,32.97215,-83.827789
30474,Pinehurst Rest Area,32.209904,-83.747337
30475,Sycamore Rest Area,31.634255,-83.584301
30476,Lenox Rest Area,31.260952,-83.471464
30477,Jennings Welcome Center,30.612739,-83.146883
30478,Lake City Rest Area,29.979032,-82.579862
30479,Micanopy Rest Area,29.589645,-82.363834
30480,Ocala Rest Area,29.09586,-82.186145
30481,Bushnell Rest Area,28.587728,-82.211777
30482,Wesley Chapel Rest Area,28.213721,-82.373503
30483,Ruskin Rest Area,27.6925,-82.420664
30484,Immokalee Rest Area,26.167499,-81.078477
30485,Weston Rest Area,26.145477,-80.626879
30486,Bath Rest Area,41.195625,-81.626491
30487,Buffalo Rest Area,39.90581,-81.528639
30488,Mineral Wells Rest Area,39.13217,-81.549427
30489,Burnwell Rest Area,38.068488,-81.380935
30490,Rocky Gap Welcome Center,37.206406,-81.104677
30491,Mount Airy Welcome Center,36.559351,-80.746271
30492,Fort Mill Welcome Center,35.079866,-80.943577
30493,Richburg Rest Area,34.7639,-81.038233
30494,Edinboro Rest Area,41.846332,-80.177029
30495,Sheakleyville Rest Area,41.46759,-80.168117
30496,Grove City Rest Area,41.101291,-80.145024
30497,Bridgeville Rest Area,40.32919,-80.141053
30498,Morgantown Welcome Center,39.697405,-80.046839
30499,Bridgeport Rest Area,39.314298,-80.254326
30500,Burnsville Rest Area,38.91313,-80.595722
30501,Frametown Rest Area,38.6205,-80.899659
30502,Watertown Rest Area,43.902037,-75.98464
30503,Whitney Point Rest Area,42.375006,-75.994904
30504,Great Bend Welcome Center,41.983957,-75.748547
30505,Lenoxville Rest Area,41.674089,-75.682368
30506,Nuangola Rest Area,41.130705,-75.963713
30507,Grantville Rest Area,40.375297,-76.677061
30508,Carlisle Rest Area,40.147691,-77.316788
30509,Falling Waters Welcome Center,39.587123,-77.847989
30510,Winchester Welcome Center,39.242805,-78.11582
30511,New Market Rest Area,38.616919,-78.7062
30512,Mount Sydney Rest Area,38.251608,-78.955205
30513,Fairfield Rest Area,37.875581,-79.309405
30514,Troutville Rest Area,37.46916,-79.811944
30515,Radford Rest Area,37.099345,-80.521023
30516,Atkins Rest Area,36.883552,-81.385744
30517,Bristol Welcome Center,36.594771,-82.247117
30518,Baileyton Rest Area,36.350604,-82.768707
30519,White Pine Rest Area,36.092041,-83.354138
30520,Dinwiddie Rest Area,37.103171,-77.544258
30521,Alberta Rest Area,36.86611,-77.83695
30522,Norlina Welcome Center,36.515521,-78.207183
30523,Oxford Rest Area,36.237879,-78.639709
30524,Burlington Rest Area,36.064914,-79.534247
30525,Thomasville Rest Area,35.844696,-80.129644
30526,Concord Rest Area,35.456824,-80.594393
30527,Blacksburg Welcome Center,35.148993,-81.49509
30528,Anderson Rest Area,34.601187,-82.653366
30529,Lavonia Welcome Center,34.472747,-83.070487
30530,Lanett Welcome Center,32.839637,-85.197299
30531,Tuskegee Rest Area,32.50428,-85.610295
30532,West Chazy Rest Area,44.805705,-73.445691
30533,North Hudson Rest Area,44.017136,-73.705286
30534,Glens Falls Rest Area,43.274146,-73.676904
30535,New Baltimore Service Plaza,42.428249,-73.806015
30536,Kingston Service Plaza,42.014199,-73.999654
30537,Newburgh Service Plaza,41.592568,-74.088359
30538,Suffern Service Plaza,41.153368,-74.189727
30539,Georgia Rest Area,44.755378,-73.078446
30540,Williston Rest Area,44.434736,-73.078519
30541,Randolph Rest Area,43.983086,-72.629118
30542,Lebanon Welcome Center,43.64879,-72.261202
30543,Sutton Rest Area,43.339409,-71.910646
30544,Derby Welcome Center,44.995335,-72.102947
30545,Lyndonville Rest Area,44.565445,-72.033976
30546,Hartford Welcome Center,43.621288,-72.348191
30547,Wallingford Rest Area,41.4603,-72.7801
30548,Sanbornton Rest Area,43.49154,-71.598484
30549,Hooksett Service Plaza,43.109146,-71.477188
30550,Medway Rest Area,45.597419,-68.537103
30551,Hampden Welcome Center,44.7675,-68.8865
30552,Cumberland Center Service Plaza,43.817615,-70.319724
30553,Kennebunk Service Plaza,43.409909,-70.560684
30554,Salisbury Welcome Center,42.879592,-70.884331
30555,Newton Service Plaza,42.33035,-71.254582
30556,Westwood Rest Area,42.217499,-71.158397
30557,North Stonington Welcome Center,41.4165,-71.8519
30558,Madison Service Plaza,41.290961,-72.580491
30559,Branford Service Plaza,41.286785,-72.833276
30560,Milford Service Plaza,41.246881,-73.010039
30561,Fairfield Service Plaza,41.148243,-73.256651
30562,Darien Service Plaza,41.068304,-73.504342
30563,Ridgefield Service Plaza,40.822894,-74.029814
30564,Secaucus Service Plaza,40.769706,-74.06507
30565,Woodbridge Service Plaza,40.560045,-74.264417
30566,Cranbury Service Plaza,40.321356,-74.48793
30567,Morrisville Rest Area,40.252298,-74.867087
30568,Newark Service Plaza,39.662352,-75.690957
30569,Perryville Service Plaza,39.6137,-76.0064
30570,Aberdeen Service Plaza,39.4994,-76.2304
30571,Savage Welcome Center,39.144,-76.8465
30572,Dale City Rest Area,38.619112,-77.29884
30573,Dale City Rest Area,38.59271,-77.318289
30574,Fredericksburg Welcome Center,38.316698,-77.504815
30575,Ladysmith Rest Area,37.981932,-77.493314
30576,Gaston Welcome Center,36.541027,-77.57985
30577,Dortches Rest Area,36.03181,-77.842546
30578,Selma Rest Area,35.538052,-78.251105
30579,Fayetteville Rest Area,34.994054,-78.836611
30580,Dillon Welcome Center,34.465871,-79.35028
30581,Shiloh Rest Area,33.948261,-80.057693
30582,Santee Welcome Center,33.49339,-80.467854
30583,Walterboro Rest Area,32.799654,-80.772967
30584,Savannah Welcome Center,32.217114,-81.17501
30585,Brunswick Rest Area,31.279951,-81.489824
30586,Yulee Welcome Center,30.697011,-81.677889
30587,Jacksonville Rest Area,30.094479,-81.498979
30588,Saint Augustine Rest Area,29.715435,-81.334748
30589,Mims Rest Area,28.708621,-80.887881
30590,Malabar Rest Area,27.948024,-80.609211
30591,Fort Pierce Rest Area,27.465053,-80.421135
30592,Palm City Rest Area,27.126478,-80.340891
30593,Wildwood Service Plaza,28.786799,-81.982224
30594,Orlando Service Plaza,28.514581,-81.499256
30595,Saint Cloud Service Plaza,28.094541,-81.273955
30596,Okeechobee Service Plaza,27.601898,-80.822887
30597,Port St. Lucie Service Plaza,27.302792,-80.373068
30598,West Palm Beach Service Plaza,26.63446,-80.174811
30599,Pompano Beach Service Plaza,26.226452,-80.182833
30600,Miami Service Plaza,25.661689,-80.387002
30601,Ridgefield Service Plaza,40.822829,-74.029751
30602,Secaucus Service Plaza,40.769931,-74.065139
30603,Woodbridge Service Plaza,40.560036,-74.264506
30604,Cranbury Service Plaza,40.321223,-74.487969
30605,Hamilton Service Plaza,40.177824,-74.630862
30606,Cherry Hill Service Plaza,39.885929,-75.002589
30607,Oldmans Service Plaza,39.697838,-75.396589
30608,McPherson Rest Area,38.485946,-97.620935
30609,Sedgwick Rest Area,37.932165,-97.328887
30610,Richfield Rest Area,41.210356,-81.667575
30611,Saint Petersburg Rest Area,27.648418,-82.675581
30612,Terra Ceia Rest Area,27.584602,-82.61415
30613,Carleton Rest Area,42.042995,-83.355413
30614,South Holland Service Plaza,41.577885,-87.599578
30615,Emporia Service Plaza,38.471138,-96.184719
30616,Cedar Rapids Rest Area,41.867025,-91.670637
30617,Laurens Rest Area,34.542573,-81.96911
30618,Groveland Rest Area,42.727245,-77.831788
30619,Plainfield Service Plaza,41.754179,-71.878263
30620,Montville Service Plaza,41.473223,-72.117248
30621,Albrightsville Service Plaza,40.970033,-75.631402
30622,Allentown Service Plaza,40.574081,-75.557744
30623,Merrimac Rest Area,42.8235,-71.01313
30624,Chelmsford Rest Area,42.596665,-71.36901
30625,Bedford Rest Area,41.230957,-73.681503
30626,Longwood Rest Area,28.724718,-81.373653
30627,Polk City Rest Area,28.167614,-81.770875
30628,Sentinel Rest Area,32.849591,-113.264884
30629,Mohawk Rest Area,32.730131,-113.717141
30630,Winterhaven Rest Area,32.737321,-114.890493
30631,El Centro Rest Area,32.773595,-115.669846
30632,Lake City Rest Area,30.253744,-82.402639
30633,Lake City Rest Area,30.27421,-82.799839
30634,Lee Rest Area,30.367609,-83.249297
30635,Monticello Rest Area,30.444501,-83.733913
30636,Tallahassee Rest Area,30.483755,-84.388752
30637,Quincy Rest Area,30.626508,-84.892323
30638,Cottondale Rest Area,30.755512,-85.328342
30639,Crestview Rest Area,30.7262,-86.5066
30640,Milton Rest Area,30.610061,-86.978137
30641,Pensacola Welcome Center,30.543972,-87.350388
30642,Grand Bay Welcome Center,30.47726,-88.388554
30643,Gautier Rest Area,30.436991,-88.622187
30644,Vinton Welcome Center,30.137338,-93.678945
30645,Winnie Rest Area,29.837321,-94.608168
30646,Columbus Rest Area,29.693005,-96.609834
30647,Seguin Rest Area,29.614964,-97.799654
30648,Kerrville Rest Area,30.052787,-99.027434
30649,Sonora Rest Area,30.615253,-100.746426
30650,Bakersfield Rest Area,30.86177,-102.082844
30651,Fort Stockton Rest Area,30.938178,-103.310919
30652,Van Horn Rest Area,31.042859,-104.754147
30653,Fabens Rest Area,31.506239,-106.121378
30654,Anthony Welcome Center,31.982398,-106.584122
30655,Las Cruces Rest Area,32.281414,-106.866705
30656,Deming Rest Area,32.202904,-108.248525
30657,San Simon Rest Area,32.236048,-109.089598
30658,Dragoon Rest Area,32.059952,-110.076294
30659,Sacaton Rest Area,33.042324,-111.784886
30660,Tonopah Rest Area,33.51991,-113.070256
30661,Salome Rest Area,33.611983,-113.645963
30662,Quartzsite Rest Area,33.618335,-114.452768
30663,Indio Rest Area,33.677947,-115.965407
30664,Whitewater Rest Area,33.92142,-116.663922
30665,Redlands Rest Area,34.012327,-117.076957
30666,Dublin Rest Area,32.50831,-83.048168
30667,Lugoff Rest Area,34.199356,-80.662401
30668,North Augusta Welcome Center,33.534857,-82.004592
30669,Harlem Rest Area,33.497983,-82.335815
30670,Rutledge Rest Area,33.602364,-83.662364
30671,Tallapoosa Welcome Center,33.677783,-85.320216
30672,Cottondale Rest Area,33.188755,-87.325036
30673,Eutaw Rest Area,32.844543,-87.952006
30674,Cuba Welcome Center,32.449904,-88.396747
30675,Forest Rest Area,32.323732,-89.441745
30676,Choudrant Rest Area,32.531594,-92.473456
30677,Greenwood Welcome Center,32.450663,-94.001136
30678,Van Rest Area,32.513859,-95.686275
30679,Ranger Rest Area,32.456949,-98.644783
30680,Abilene Rest Area,32.427721,-99.581452
30681,Trent Rest Area,32.486555,-100.209578
30682,Coahoma Rest Area,32.300595,-101.259906
30683,Pyote Rest Area,31.538241,-103.067157
30684,Chattanooga Welcome Center,34.993409,-85.399285
30685,Jasper Rest Area,35.023998,-85.559099
30686,Monteagle Rest Area,35.24273,-85.858874
30687,Clarksville Welcome Center,36.636194,-87.334816
30688,Ladson Rest Area,32.98946,-80.085595
30689,Orangeburg Rest Area,33.500952,-80.77122
30690,Gaston Rest Area,33.838841,-81.023553
30691,Kinards Rest Area,34.4126,-81.706868
30692,Landrum Welcome Center,35.165878,-82.132749
30693,Fletcher Rest Area,35.426304,-82.529591
30694,Mars Hill Welcome Center,35.874066,-82.544752
30695,Social Hill Rest Area,34.350852,-92.891912
30696,Gurdon Rest Area,33.929319,-93.25968
30697,Texarkana Welcome Center,33.51692,-93.936351
30698,Cumby Rest Area,33.130387,-95.815236
30699,Benson Rest Area,35.435486,-78.534547
30700,Burlington Rest Area,36.062554,-79.535181
30701,Clemmons Rest Area,35.987894,-80.488059
30702,Claremont Rest Area,35.725295,-81.127115
30703,Marion Rest Area,35.639235,-82.018765
30704,Waterville Lake Welcome Center,35.70321,-83.040988
30705,Dandridge Rest Area,36.05182,-83.411397
30706,Crab Orchard Rest Area,35.9462,-84.944383
30707,Buffalo Valley Welcome Center,36.140187,-85.805912
30708,Dickson Rest Area,36.011032,-87.378662
30709,Holladay Rest Area,35.870259,-88.02166
30710,Jackson Rest Area,35.623702,-88.977279
30711,Forrest City Rest Area,34.998184,-90.86409
30712,White River Rest Area,34.835591,-91.468312
30713,Knoxville Rest Area,35.367582,-93.345213
30714,Ozark Rest Area,35.520268,-93.85158
30715,Van Buren Welcome Center,35.458834,-94.398593
30716,Sallisaw Rest Area,35.406774,-94.681341
30717,Erick Welcome Center,35.227537,-99.828431
30718,Alanreed Rest Area,35.179042,-100.830084
30719,Newkirk Rest Area,35.068035,-104.238607
30720,Santa Rosa Rest Area,34.980544,-105.085957
30721,Moriarty Rest Area,35.004536,-105.851188
30722,Gallup Welcome Center,35.397407,-109.004407
30723,Winslow Rest Area,35.104696,-111.004952
30724,Yucca Rest Area,34.831103,-114.143797
30725,Essex Rest Area,34.808178,-115.219012
30726,Newberry Springs Rest Area,34.80012,-116.524862
30727,Saint Clair Rest Area,38.315563,-91.048259
30728,Rolla Rest Area,37.944713,-91.909799
30729,Conway Welcome Center,37.47283,-92.856783
30730,Mount Vernon Rest Area,37.138349,-93.722708
30731,Joplin Welcome Center,37.002937,-94.584136
30732,Vinita Service Plaza,36.622521,-95.147401
30733,Stroud Service Plaza,35.7519,-96.689506
30734,Chandler Service Plaza,35.719373,-96.880451
30735,Chickasha Service Plaza,35.082074,-97.889129
30736,Walters Service Plaza,34.370398,-98.409565
30737,New Kent Welcome Center,37.496891,-77.043425
30738,Goochland Rest Area,37.700143,-77.749124
30739,Afton Rest Area,38.045354,-78.764661
30740,Covington Welcome Center,37.810386,-80.188933
30741,Burnwell Rest Area,38.068449,-81.38093
30742,Hurricane Rest Area,38.449188,-81.997891
30743,Huntington Welcome Center,38.392278,-82.422321
30744,Grayson Rest Area,38.356655,-82.898626
30745,Morehead Rest Area,38.236366,-83.438658
30746,Winchester Rest Area,38.020582,-84.14072
30747,Midway Rest Area,38.168888,-84.766263
30748,Shelbyville Welcome Center,38.204115,-85.329382
30749,Dale Rest Area,38.194368,-86.948782
30750,Griffin Welcome Center,38.193729,-87.85924
30751,Mount Vernon Rest Area,38.273569,-88.849578
30752,Mascoutah Rest Area,38.548567,-89.773042
30753,Manassas Rest Area,38.808068,-77.494056
30754,Hancock Rest Area,39.71585,-78.280976
30755,Friendsville Welcome Center,39.676958,-79.375492
30756,Myersville Welcome Center,39.528275,-77.604031
30757,Emmaville Rest Area,39.921228,-78.235475
30758,Bedford Service Plaza,40.030199,-78.493432
30759,Somerset Service Plaza,39.999261,-79.046414
30760,Claysville Welcome Center,40.115963,-80.441195
30761,Belmont Rest Area,40.063546,-81.014219
30762,Cambridge Rest Area,40.039323,-81.39372
30763,Buckeye Lake Rest Area,39.945718,-82.452535
30764,Springfield Rest Area,39.940139,-83.531823
30765,New Paris Welcome Center,39.827954,-84.760833
30766,Greenfield Rest Area,39.824643,-85.703886
30767,Plainfield Rest Area,39.65222,-86.396864
30768,West Terre Haute Welcome Center,39.441711,-87.500439
30769,Altamont Rest Area,39.065484,-88.674207
30770,Highland Welcome Center,38.785202,-89.703147
30771,Wright City Rest Area,38.827003,-91.054093
30772,Boonville Rest Area,38.936023,-92.72593
30773,Concordia Rest Area,38.992719,-93.586738
30774,Lawrence Service Plaza,39.019812,-95.135623
30775,Topeka Service Plaza,39.019547,-95.508804
30776,Paxico Rest Area,39.059099,-96.120992
30777,Manhattan Rest Area,39.06522,-96.614359
30778,Solomon Rest Area,38.926014,-97.394571
30779,Ellsworth Rest Area,38.855564,-98.124151
30780,Ogallah Rest Area,38.998356,-99.805066
30781,Grainfield Rest Area,39.099096,-100.42859
30782,Colby Rest Area,39.365133,-101.155623
30783,Goodland Welcome Center,39.327979,-101.902753
30784,Glenwood Springs Rest Area,39.589342,-107.19036
30785,Crescent Junction Rest Area,38.938484,-109.827442
30786,Green River Rest Area,38.932527,-110.472395
30787,Emery Rest Area,38.862484,-110.812332
30788,Emery Rest Area,38.849169,-110.925744
30789,Emery Rest Area,38.828825,-111.114637
30790,Argenta Rest Area,39.992367,-88.782905
30791,Lizton Rest Area,39.899827,-86.55486
30792,Covington Welcome Center,40.116524,-87.504893
30793,Farmer City Rest Area,40.273236,-88.67622
30794,Congerville Rest Area,40.612341,-89.245074
30795,Gilson Rest Area,40.878253,-90.092552
30796,Alpha Rest Area,41.233781,-90.332777
30797,Wayne Service Plaza,40.083221,-75.439922
30798,Bowmansville Service Plaza,40.202419,-76.015566
30799,Middletown Service Plaza,40.209962,-76.743319
30800,Plainfield Service Plaza,40.205307,-77.287696
30801,Harrisonville Service Plaza,40.058987,-78.081651
30802,Bedford Service Plaza,40.030199,-78.493432
30803,Somerset Service Plaza,39.999261,-79.046414
30804,Verona Service Plaza,40.521182,-79.813902
30805,Petersburg Service Plaza,40.938806,-80.587123
30806,Ravenna Rest Area,41.104344,-81.112961
30807,Columbia Welcome Center,40.926984,-75.039602
30808,Columbia Rest Area,40.970209,-75.128363
30809,Scotrun Rest Area,41.064173,-75.35973
30810,White Haven Rest Area,41.055752,-75.822087
30811,Mifflinville Rest Area,41.007482,-76.251058
30812,Danville Rest Area,40.990605,-76.7394
30813,Carroll Rest Area,41.049617,-77.152388
30814,Snow Shoe Rest Area,41.014599,-77.955806
30815,Emerickville Rest Area,41.140614,-78.955485
30816,Barkeyville Rest Area,41.202087,-79.956424
30817,West Middlesex Welcome Center,41.181303,-80.502201
30818,Windham Service Plaza,41.242536,-81.177827
30819,Broadview Heights Service Plaza,41.291612,-81.675789
30820,Amherst Service Plaza,41.377522,-82.225091
30821,Fremont Service Plaza,41.367844,-82.958857
30822,Genoa Service Plaza,41.489905,-83.369436
30823,West Unity Service Plaza,41.603486,-84.407646
30824,Howe Service Plaza,41.745223,-85.329333
30825,Elkhart Service Plaza,41.731451,-86.004837
30826,Rolling Prairie Service Plaza,41.705899,-86.62142
30827,Portage Service Plaza,41.587012,-87.217396
30828,South Holland Service Plaza,41.577885,-87.599578
30829,Minooka Rest Area,41.431351,-88.345285
30830,Princeton Rest Area,41.393801,-89.566444
30831,Rapids City Welcome Center,41.570766,-90.363902
30832,Davenport Rest Area,41.595896,-90.491072
30833,Wilton Rest Area,41.639498,-91.054148
30834,Tiffin Rest Area,41.693674,-91.682328
30835,Victor Rest Area,41.695167,-92.230261
30836,Grinnell Rest Area,41.69386,-92.77331
30837,Mitchellville Rest Area,41.679879,-93.394694
30838,Adair Rest Area,41.496374,-94.561798
30839,Underwood Welcome Center,41.401453,-95.658637
30840,Ashland Rest Area,41.002075,-96.318371
30841,Milford Rest Area,40.821548,-97.061017
30842,York Rest Area,40.820764,-97.642548
30843,Grand Island Rest Area,40.822916,-98.3263
30844,Kearney Rest Area,40.670563,-99.157425
30845,Cozad Rest Area,40.81569,-99.914041
30846,Brady Rest Area,41.0298,-100.457301
30847,Sutherland Rest Area,41.139016,-101.096737
30848,Ogallala Rest Area,41.10725,-101.75685
30849,Sidney Rest Area,41.154635,-103.090452
30850,Rock Springs Rest Area,41.644574,-108.547833
30851,Echo Rest Area,40.989824,-111.40283
30852,Grantsville Rest Area,40.755477,-113.018192
30853,Wendover Rest Area,40.737679,-113.857194
30854,Beowawe Rest Area,40.681493,-116.479088
30855,Truckee Rest Area,39.341109,-120.339999
30856,Yakima Rest Area,46.697683,-120.443672
30857,West Willington Rest Area,41.892141,-72.297665
30858,Southington Rest Area,41.572336,-72.904588
30859,Danbury Welcome Center,41.388999,-73.519753
30860,Stormville Rest Area,41.546561,-73.722264
30861,Middletown Rest Area,41.425033,-74.39558
30862,Greentown Rest Area,41.356416,-75.221347
30863,Morgan Rest Area,41.13915,-111.847493
30864,Brigham City Rest Area,41.552389,-112.07043
30865,Stone Rest Area,42.074757,-112.911388
30866,Declo Rest Area,42.50463,-113.409131
30867,Bliss Rest Area,42.937953,-115.072568
30868,Boise Rest Area,43.477575,-116.107447
30869,Fruitland Welcome Center,43.93593,-116.935897
30870,Baker City Rest Area,44.914198,-117.821112
30871,La Grande Rest Area,45.234936,-118.014866
30872,Stanfield Rest Area,45.770232,-119.251556
30873,Boardman Rest Area,45.831493,-119.768251
30874,Mosier Rest Area,45.694709,-121.342935
30875,Wyeth Turnout,45.688454,-121.690315
30876,Roscoe Rest Area,41.926158,-74.86416
30877,Nichols Rest Area,42.022551,-76.417109
30878,Campbell Rest Area,42.243562,-77.198736
30879,Friendship Rest Area,42.224131,-78.100723
30880,Bemus Point Welcome Center,42.134382,-79.348355
30881,American Falls Rest Area,42.613846,-113.145688
30882,Sidney Rest Area,42.325542,-75.289868
30883,DeKalb Service Plaza,41.900182,-88.739259
30884,Natick Service Plaza,42.311635,-71.364576
30885,Charlton Service Plaza,42.139653,-72.024991
30886,Ludlow Service Plaza,42.169109,-72.454197
30887,Blandford Service Plaza,42.194564,-72.934252
30888,Lee Service Plaza,42.296963,-73.275089
30889,Schenectady Service Plaza,42.743907,-73.918581
30890,Amsterdam Service Plaza,42.914763,-74.162581
30891,Little Falls Service Plaza,43.01589,-74.803631
30892,Oneida Service Plaza,43.125089,-75.414672
30893,Syracuse Service Plaza,43.091088,-76.10098
30894,Port Byron Service Plaza,43.023769,-76.671116
30895,Clifton Springs Service Plaza,42.972746,-77.173593
30896,Scottsville Service Plaza,43.041019,-77.715246
30897,Batavia Service Plaza,43.011708,-78.329054
30898,Angola Service Plaza,42.635695,-78.989117
30899,West Springfield Welcome Center,41.941766,-80.472716
30900,Mentor Rest Area,41.650356,-81.289874
30901,Amherst Service Plaza,41.377522,-82.225091
30902,Fremont Service Plaza,41.367844,-82.958857
30903,Genoa Service Plaza,41.489905,-83.369436
30904,West Unity Service Plaza,41.603486,-84.407646
30905,Howe Service Plaza,41.745223,-85.329333
30906,Elkhart Service Plaza,41.731451,-86.004837
30907,Rolling Prairie Service Plaza,41.705899,-86.62142
30908,Portage Service Plaza,41.587012,-87.217396
30909,Des Plaines Service Plaza,42.01399,-87.92676
30910,Belvidere Service Plaza,42.233626,-88.834562
30911,South Beloit Welcome Center,42.480351,-88.997208
30912,Janesville Rest Area,42.768654,-89.006713
30913,Poynette Rest Area,43.428869,-89.483297
30914,Lyndon Station Rest Area,43.757462,-89.967499
30915,La Crosse Welcome Center,43.859087,-91.270624
30916,Lewiston Rest Area,43.931693,-91.852673
30917,Stewartville Rest Area,43.809904,-92.58153
30918,Albert Lea Rest Area,43.669427,-93.284027
30919,Blue Earth Rest Area,43.658978,-94.112031
30920,Jackson Rest Area,43.635571,-95.083022
30921,Adrian Rest Area,43.636944,-95.98127
30922,Beaver Creek Welcome Center,43.607409,-96.462274
30923,Valley Springs Rest Area,43.607409,-96.462274
30924,Salem Rest Area,43.666044,-97.421768
30925,White Lake Rest Area,43.708083,-98.626242
30926,Chamberlain Rest Area,43.786153,-99.339461
30927,Presho Rest Area,43.911683,-100.199858
30928,Belvidere Rest Area,43.82025,-101.232123
30929,Wasta Rest Area,44.062779,-102.44007
30930,Spearfish Welcome Center,44.545435,-104.034224
30931,Hardin Rest Area,45.782484,-108.002706
30932,Columbus Rest Area,45.598325,-109.064795
30933,Greycliff Rest Area,45.734364,-109.757708
30934,Bearmouth Rest Area,46.703269,-113.338656
30935,Superior Rest Area,47.076061,-114.76698
30936,Saltese Rest Area,47.419631,-115.62897
30937,Post Falls Welcome Center,47.707957,-116.865301
30938,Sprague Rest Area,47.289457,-118.034499
30939,Schrag Rest Area,47.085175,-118.844808
30940,Moses Lake Rest Area,47.103456,-119.626789
30941,Ellensburg Rest Area,46.941588,-120.203572
30942,Cle Elum Rest Area,47.160827,-120.849314
30943,Adair Rest Area,42.79027,-82.65902
30944,Chelsea Rest Area,42.293915,-84.000509
30945,Sandstone Rest Area,42.268205,-84.492808
30946,Battle Creek Rest Area,42.26355,-85.219627
30947,New Buffalo Welcome Center,41.764804,-86.740937
30948,Lake Forest Service Plaza,42.252947,-87.901358
30949,Lake Mills Rest Area,43.085815,-88.874585
30950,Poynette Rest Area,43.428869,-89.483297
30951,Lyndon Station Rest Area,43.757462,-89.967499
30952,Black River Falls Rest Area,44.226078,-90.707489
30953,Menomonie Rest Area,44.907059,-91.906716
30954,Osseo Rest Area,45.111718,-93.473711
30955,Monticello Rest Area,45.34971,-93.90709
30956,Avon Rest Area,45.603161,-94.483115
30957,Alexandria Rest Area,45.868276,-95.450928
30958,Moorhead Welcome Center,46.845471,-96.741149
30959,Casselton Turnout,46.875053,-97.297809
30960,Oriska Rest Area,46.919493,-97.750667
30961,Jamestown Rest Area,46.891858,-98.798814
30962,Medina Rest Area,46.879965,-99.491588
30963,Bismarck Rest Area,46.836226,-100.584004
30964,New Salem Rest Area,46.860228,-101.603365
30965,Hathaway Rest Area,46.26117,-106.279792
30966,Hysham Rest Area,46.218061,-107.250059
30967,Custer Rest Area,46.063339,-107.709103
30968,Howell Rest Area,42.604292,-83.957701
30969,Grand Ledge Rest Area,42.797571,-84.715366
30970,Saranac Rest Area,42.87801,-85.159489
30971,Walker Rest Area,43.024961,-85.780289
30972,Dyersburg Welcome Center,36.071098,-89.469669
30973,Wareham Rest Area,41.751201,-70.748174
30974,Zeeland Rest Area,42.823672,-85.927194
30975,Glenn Rest Area,42.503693,-86.217805
30976,Dix Hills Welcome Center,40.802774,-73.317417
30977,Missouri Valley Rest Area,41.493014,-95.840325
30978,Longwood Rest Area,28.701811,-81.384902
30979,Polk City Rest Area,28.174015,-81.766798
30980,Sentinel Rest Area,32.85463,-113.253125
30981,Mohawk Rest Area,32.731702,-113.715234
30982,Winterhaven Rest Area,32.737321,-114.890493
30983,El Centro Rest Area,32.774458,-115.66863
30984,Lake City Rest Area,30.254718,-82.400665
30985,Lake City Rest Area,30.273388,-82.78382
30986,Lee Rest Area,30.368702,-83.243773
30987,Monticello Rest Area,30.446907,-83.7305
30988,Tallahassee Rest Area,30.485264,-84.384797
30989,Quincy Rest Area,30.626508,-84.892323
30990,Cottondale Rest Area,30.757964,-85.322272
30991,Crestview Rest Area,30.727561,-86.507892
30992,Milton Rest Area,30.611961,-86.978054
30993,Seminole Welcome Center,30.577902,-87.42195
30994,Moss Point Welcome Center,30.462215,-88.434259
30995,Gautier Rest Area,30.438585,-88.619195
30996,Slidell Welcome Center,30.299478,-89.71179
30997,Orange Welcome Center,30.123307,-93.713529
30998,Winnie Rest Area,29.8399,-94.608684
30999,Columbus Rest Area,29.693725,-96.610148
31000,Seguin Rest Area,29.616403,-97.805764
31001,Kerrville Rest Area,30.054299,-99.026139
31002,Sonora Rest Area,30.615959,-100.745135
31003,Bakersfield Rest Area,30.855999,-102.069862
31004,Fort Stockton Rest Area,30.938721,-103.308633
31005,Van Horn Rest Area,31.04354,-104.752556
31006,Fabens Rest Area,31.504292,-106.116381
31007,Anthony Welcome Center,32.006422,-106.581689
31008,Deming Rest Area,32.224942,-108.12297
31009,San Simon Rest Area,32.238929,-109.08682
31010,Dragoon Rest Area,32.060585,-110.077955
31011,Sacaton Rest Area,33.028356,-111.771814
31012,Tonopah Rest Area,33.52099,-113.06733
31013,Salome Rest Area,33.613981,-113.645069
31014,Quartzsite Rest Area,33.621213,-114.447181
31015,Indio Rest Area,33.678652,-115.962515
31016,Whitewater Rest Area,33.923212,-116.664154
31017,Beaumont Rest Area,33.958143,-117.019396
31018,Dublin Rest Area,32.505573,-83.017952
31019,Lugoff Rest Area,34.201654,-80.661499
31020,Augusta Welcome Center,33.527298,-82.023205
31021,Harlem Rest Area,33.499638,-82.327833
31022,Rutledge Rest Area,33.580278,-83.577286
31023,Heflin Welcome Center,33.66945,-85.372332
31024,Cottondale Rest Area,33.191071,-87.325271
31025,Eutaw Rest Area,32.857607,-87.941263
31026,Toomsuba Welcome Center,32.410791,-88.534381
31027,Morton Rest Area,32.305577,-89.699153
31028,Tallulah Welcome Center,32.325443,-90.98985
31029,Choudrant Rest Area,32.529689,-92.448345
31030,Waskom Welcome Center,32.463508,-94.044905
31031,Van Rest Area,32.515262,-95.686886
31032,Ranger Rest Area,32.491062,-98.550927
31033,Abilene Rest Area,32.427278,-99.57362
31034,Trent Rest Area,32.48736,-100.208727
31035,Westbrook Rest Area,32.343018,-101.062769
31036,Pyote Rest Area,31.540414,-103.069812
31037,Jasper Welcome Center,35.026392,-85.557618
31038,Monteagle Rest Area,35.24443,-85.860505
31039,Trenton Welcome Center,36.649621,-87.351598
31040,Orangeburg Rest Area,33.480951,-80.755576
31041,Gaston Rest Area,33.839189,-81.022344
31042,Kinards Rest Area,34.413485,-81.705624
31043,Columbus Welcome Center,35.235662,-82.20218
31044,Fletcher Rest Area,35.427074,-82.528134
31045,Social Hill Rest Area,34.350852,-92.891912
31046,Gurdon Rest Area,33.939315,-93.249702
31047,Texarkana Welcome Center,33.471021,-94.056555
31048,Cumby Rest Area,33.133073,-95.821308
31049,Benson Rest Area,35.438692,-78.53258
31050,Burlington Rest Area,36.064914,-79.534247
31051,Clemmons Rest Area,35.989727,-80.489093
31052,Claremont Rest Area,35.730057,-81.12752
31053,Marion Rest Area,35.640313,-82.017397
31054,Waterville Lake Rest Area,35.70161,-83.041033
31055,Hartford Welcome Center,35.819205,-83.158848
31056,Dandridge Rest Area,36.034452,-83.322682
31057,Crab Orchard Rest Area,35.928396,-84.91353
31058,Buffalo Valley Welcome Center,36.140187,-85.805912
31059,Dickson Rest Area,36.012566,-87.379477
31060,Holladay Rest Area,35.870291,-88.004059
31061,Jackson Rest Area,35.628206,-88.967884
31062,Stanton Rest Area,35.409217,-89.388563
31063,Forrest City Rest Area,35.038958,-90.759089
31064,White River Rest Area,34.837622,-91.469027
31065,Big Piney Rest Area,35.336807,-93.28507
31066,Ozark Rest Area,35.518179,-93.837155
31067,Sallisaw Welcome Center,35.430926,-94.717222
31068,Alanreed Rest Area,35.196996,-100.802499
31069,Bard Welcome Center,35.184021,-103.048839
31070,Newkirk Rest Area,35.06947,-104.238951
31071,Santa Rosa Rest Area,34.981846,-105.081071
31072,Moriarty Rest Area,35.005993,-105.844355
31073,Winslow Rest Area,35.104029,-110.992539
31074,Yucca Rest Area,34.83158,-114.146137
31075,Essex Rest Area,34.810372,-115.219743
31076,Newberry Springs Rest Area,34.801593,-116.521338
31077,Saint Clair Rest Area,38.316793,-91.044568
31078,Rolla Rest Area,37.946021,-91.9097
31079,Conway Welcome Center,37.475265,-92.857416
31080,Mount Vernon Rest Area,37.141069,-93.720734
31081,Joplin Turnout,37.003721,-94.585858
31082,Miami Welcome Center,36.875383,-94.846042
31083,Vinita Service Plaza,36.623967,-95.148464
31084,Stroud Service Plaza,35.7519,-96.689506
31085,Chickasha Service Plaza,35.082074,-97.889129
31086,Walters Service Plaza,34.370398,-98.409565
31087,New Kent Rest Area,37.499182,-77.043407
31088,Goochland Rest Area,37.705506,-77.76326
31089,Charlottesville Rest Area,38.034684,-78.628314
31090,Fairfield Rest Area,37.875581,-79.309405
31091,White Sulphur Springs Welcome Center,37.785979,-80.30046
31092,Burnwell Service Plaza,38.102196,-81.383019
31093,Hurricane Rest Area,38.449386,-82.000616
31094,Grayson Welcome Center,38.35229,-82.911606
31095,Morehead Rest Area,38.230633,-83.443558
31096,Midway Rest Area,38.170284,-84.765975
31097,Dale Rest Area,38.197146,-86.947644
31098,Grayville Rest Area,38.232187,-87.989502
31099,Mount Vernon Rest Area,38.276234,-88.801318
31100,Mascoutah Rest Area,38.548846,-89.763218
31101,Manassas Welcome Center,38.809126,-77.49429
31102,Hancock Rest Area,39.718119,-78.280284
31103,Bruceton Mills Welcome Center,39.66393,-79.495197
31104,Myersville Welcome Center,39.52527,-77.600688
31105,Warfordsburg Welcome Center,39.736821,-78.181031
31106,Bedford Service Plaza,40.030632,-78.491897
31107,Somerset Service Plaza,40.000161,-79.044351
31108,New Stanton Service Plaza,40.20611,-79.566247
31109,Valley Grove Welcome Center,40.091527,-80.536198
31110,Belmont Welcome Center,40.064571,-81.011096
31111,Zanesville Rest Area,39.973482,-81.859236
31112,Buckeye Lake Rest Area,39.947345,-82.452937
31113,Springfield Rest Area,39.941707,-83.532702
31114,New Paris Rest Area,39.829267,-84.759273
31115,Centerville Welcome Center,39.860318,-85.026076
31116,Greenfield Rest Area,39.826332,-85.703949
31117,Plainfield Rest Area,39.654029,-86.40063
31118,Marshall Welcome Center,39.422777,-87.661278
31119,Altamont Rest Area,39.067758,-88.670429
31120,Highland Rest Area,38.788371,-89.687751
31121,Wright City Rest Area,38.829076,-91.050168
31122,Boonville Rest Area,38.938065,-92.729241
31123,Concordia Rest Area,38.994383,-93.586771
31124,Lawrence Service Plaza,39.019812,-95.135623
31125,Topeka Service Plaza,39.019547,-95.508804
31126,Paxico Rest Area,39.060267,-96.12134
31127,Manhattan Rest Area,39.066923,-96.622324
31128,Solomon Rest Area,38.927414,-97.394341
31129,Ellsworth Rest Area,38.857103,-98.133394
31130,Ogallah Rest Area,38.996363,-99.789043
31131,Grainfield Rest Area,39.099969,-100.426172
31132,Colby Rest Area,39.36643,-101.149966
31133,Goodland Rest Area,39.329937,-101.915756
31134,Burlington Welcome Center,39.29649,-102.266127
31135,Harley Dome Rest Area,39.188958,-109.116612
31136,Thompson Welcome Center,38.951967,-109.685494
31137,Green River Rest Area,38.920944,-110.431061
31138,Green River Rest Area,38.939745,-110.482009
31139,Emery Rest Area,38.864002,-110.813098
31140,Emery Rest Area,38.832705,-111.112282
31141,Argenta Rest Area,39.988812,-88.787641
31142,Batesville Rest Area,39.289012,-85.168744
31143,Lizton Rest Area,39.901372,-86.554256
31144,Oakwood Welcome Center,40.129712,-87.744199
31145,Farmer City Rest Area,40.271109,-88.670026
31146,Congerville Rest Area,40.611396,-89.232609
31147,Gilson Rest Area,40.880146,-90.089174
31148,Alpha Rest Area,41.213966,-90.330971
31149,King of Prussia Service Plaza,40.089701,-75.371165
31150,Glenmoore Service Plaza,40.121835,-75.776465
31151,Hershey Service Plaza,40.208107,-76.574378
31152,Newburg Service Plaza,40.165929,-77.596977
31153,Harrisonville Service Plaza,40.058987,-78.081651
31154,Bedford Service Plaza,40.030632,-78.491897
31155,Somerset Service Plaza,40.000161,-79.044351
31156,New Stanton Service Plaza,40.20611,-79.566247
31157,Petersburg Service Plaza,40.940465,-80.585937
31158,Ravenna Rest Area,41.105776,-81.113349
31159,Easton Welcome Center,40.675272,-75.201383
31160,Columbia Rest Area,40.970209,-75.128363
31161,Mifflinville Rest Area,41.009974,-76.248442
31162,Danville Rest Area,40.990653,-76.725345
31163,Carroll Rest Area,41.052202,-77.158578
31164,Snow Shoe Rest Area,41.019297,-77.953152
31165,Emerickville Rest Area,41.149011,-78.94145
31166,Barkeyville Rest Area,41.202522,-79.945539
31167,Windham Service Plaza,41.244576,-81.175848
31168,Broadview Heights Service Plaza,41.292371,-81.67124
31169,Amherst Service Plaza,41.379787,-82.222572
31170,Fremont Service Plaza,41.369144,-82.956234
31171,Genoa Service Plaza,41.490829,-83.367794
31172,West Unity Service Plaza,41.605494,-84.407547
31173,Howe Service Plaza,41.746721,-85.328704
31174,Elkhart Service Plaza,41.733046,-86.005022
31175,Rolling Prairie Service Plaza,41.706912,-86.623179
31176,Portage Service Plaza,41.588713,-87.216729
31177,South Holland Service Plaza,41.579603,-87.59915
31178,Minooka Rest Area,41.44715,-88.32837
31179,Princeton Rest Area,41.393607,-89.55926
31180,Davenport Rest Area,41.597451,-90.478979
31181,Wilton Welcome Center,41.642015,-91.054416
31182,Tiffin Rest Area,41.694967,-91.680127
31183,Victor Rest Area,41.696488,-92.231831
31184,Grinnell Rest Area,41.696019,-92.772511
31185,Mitchellville Rest Area,41.681055,-93.390032
31186,Adair Rest Area,41.49726,-94.572541
31187,Underwood Rest Area,41.403816,-95.658701
31188,Gretna Rest Area,41.084228,-96.275475
31189,Seward Rest Area,40.822921,-97.170871
31190,York Rest Area,40.822601,-97.557027
31191,Grand Island Rest Area,40.821634,-98.295317
31192,Kearney Rest Area,40.670804,-99.121655
31193,Cozad Rest Area,40.811521,-99.900718
31194,Brady Rest Area,41.034618,-100.466154
31195,Sutherland Rest Area,41.141214,-101.090085
31196,Ogallala Rest Area,41.119769,-101.603841
31197,Sidney Rest Area,41.113734,-102.924693
31198,Rock Springs Rest Area,41.642109,-108.532305
31199,Echo Welcome Center,40.989612,-111.405872
31200,Grantsville Rest Area,40.762177,-113.010297
31201,Wendover Rest Area,40.740414,-113.851907
31202,Beowawe Rest Area,40.679686,-116.473209
31203,Wadsworth Rest Area,39.603003,-119.33669
31204,Truckee Rest Area,39.342623,-120.340175
31205,Vallejo Rest Area,38.151805,-122.217265
31206,Yakima Rest Area,46.711384,-120.415864
31207,West Willington Welcome Center,41.893889,-72.296969
31208,Stormville Rest Area,41.548111,-73.723294
31209,Wallkill Rest Area,41.478962,-74.297336
31210,Greentown Rest Area,41.35898,-75.220188
31211,Morgan Rest Area,41.138302,-111.796879
31212,Perry Rest Area,41.466987,-112.053217
31213,Stone Rest Area,42.072758,-112.905111
31214,Declo Rest Area,42.505039,-113.407566
31215,Bliss Rest Area,42.939822,-115.073186
31216,Boise Rest Area,43.479549,-116.106674
31217,Ontario Welcome Center,44.016257,-116.943944
31218,Baker City Rest Area,44.91403,-117.819087
31219,La Grande Rest Area,45.235574,-118.012067
31220,Stanfield Rest Area,45.771921,-119.251049
31221,Boardman Rest Area,45.832911,-119.768478
31222,Mosier Rest Area,45.695677,-121.338376
31223,Hood River Rest Area,45.703997,-121.476678
31224,East Branch Rest Area,41.993595,-75.160797
31225,Owego Rest Area,42.086556,-76.279935
31226,Bath Rest Area,42.372111,-77.353556
31227,Allegany Rest Area,42.096063,-78.535819
31228,American Falls Rest Area,42.697134,-112.95834
31229,East Worcester Rest Area,42.608848,-74.685294
31230,DeKalb Service Plaza,41.900182,-88.739259
31231,Framingham Service Plaza,42.312276,-71.42843
31232,Westborough Service Plaza,42.245366,-71.592017
31233,Charlton Service Plaza,42.156367,-71.964105
31234,Ludlow Service Plaza,42.170912,-72.455686
31235,Blandford Service Plaza,42.195333,-72.932548
31236,Lee Service Plaza,42.298397,-73.27426
31237,Amsterdam Service Plaza,42.896728,-74.096821
31238,Fultonville Welcome Center,42.91624,-74.44577
31239,Little Falls Service Plaza,43.017056,-74.802636
31240,Frankfort Service Plaza,43.076284,-75.102939
31241,Canastota Service Plaza,43.096045,-75.841601
31242,Warners Service Plaza,43.09204,-76.319328
31243,Phelps Service Plaza,42.959158,-76.917782
31244,Victor Service Plaza,42.999013,-77.413249
31245,Le Roy Service Plaza,43.030848,-77.906547
31246,Clarence Service Plaza,42.952661,-78.602725
31247,Angola Service Plaza,42.635695,-78.989117
31248,North East Welcome Center,42.248824,-79.767501
31249,Conneaut Welcome Center,41.925152,-80.551081
31250,Mentor Rest Area,41.655072,-81.283502
31251,Amherst Service Plaza,41.379787,-82.222572
31252,Fremont Service Plaza,41.369144,-82.956234
31253,Genoa Service Plaza,41.490829,-83.367794
31254,West Unity Service Plaza,41.605494,-84.407547
31255,Howe Service Plaza,41.746721,-85.328704
31256,Elkhart Service Plaza,41.733046,-86.005022
31257,Rolling Prairie Service Plaza,41.706912,-86.623179
31258,Portage Service Plaza,41.588713,-87.216729
31259,Des Plaines Service Plaza,42.015668,-87.926029
31260,Belvidere Service Plaza,42.233626,-88.834562
31261,Beloit Welcome Center,42.505442,-88.984351
31262,Poynette Rest Area,43.425051,-89.47654
31263,Lyndon Station Rest Area,43.750844,-89.949061
31264,Sparta Rest Area,43.910222,-90.880831
31265,La Crescent Welcome Center,43.859475,-91.304506
31266,Eyota Rest Area,43.956257,-92.284993
31267,Albert Lea Rest Area,43.660894,-93.114112
31268,Blue Earth Rest Area,43.663539,-94.117221
31269,Jackson Rest Area,43.640451,-95.02071
31270,Adrian Rest Area,43.638328,-95.966765
31271,Valley Springs Welcome Center,43.61014,-96.4613
31272,Salem Rest Area,43.667133,-97.415223
31273,White Lake Rest Area,43.709342,-98.616143
31274,Chamberlain Rest Area,43.786153,-99.339461
31275,Presho Rest Area,43.898814,-100.14739
31276,Belvidere Rest Area,43.853381,-101.204014
31277,Wasta Rest Area,44.064675,-102.434631
31278,Hardin Rest Area,45.780471,-108.000459
31279,Columbus Rest Area,45.60054,-109.066058
31280,Greycliff Rest Area,45.735742,-109.756769
31281,Bearmouth Rest Area,46.703166,-113.345633
31282,Superior Rest Area,47.073695,-114.764884
31283,Saltese Rest Area,47.419502,-115.624881
31284,Post Falls Rest Area,47.710172,-116.866492
31285,Sprague Rest Area,47.295924,-118.032102
31286,Schrag Rest Area,47.087108,-118.845477
31287,Moses Lake Rest Area,47.104295,-119.615411
31288,Ellensburg Rest Area,46.947269,-120.209264
31289,Cle Elum Rest Area,47.161396,-120.842909
31290,Port Huron Welcome Center,42.988911,-82.474104
31291,Richmond Rest Area,42.743085,-82.720054
31292,Belleville Rest Area,42.220339,-83.519626
31293,Grass Lake Rest Area,42.293062,-84.215091
31294,Marshall Rest Area,42.283547,-84.913752
31295,Galesburg Rest Area,42.271794,-85.442886
31296,Watervliet Rest Area,42.181309,-86.239952
31297,Michigan City Welcome Center,41.735313,-86.793565
31298,Lake Forest Service Plaza,42.252947,-87.901358
31299,Johnson Creek Rest Area,43.087323,-88.823486
31300,Poynette Rest Area,43.425051,-89.47654
31301,Lyndon Station Rest Area,43.750844,-89.949061
31302,Black River Falls Rest Area,44.247227,-90.737999
31303,Menomonie Rest Area,44.90841,-91.908833
31304,Lakeland Welcome Center,44.951269,-92.820548
31305,Clearwater Rest Area,45.418633,-94.072129
31306,Avon Rest Area,45.604401,-94.476704
31307,Alexandria Rest Area,45.837239,-95.344195
31308,Dalton Rest Area,46.132792,-95.922238
31309,Mapleton Turnout,46.877854,-97.087888
31310,Oriska Rest Area,46.919493,-97.750667
31311,Jamestown Rest Area,46.892987,-98.804099
31312,Medina Rest Area,46.874272,-99.439985
31313,Bismarck Rest Area,46.837871,-100.583641
31314,New Salem Rest Area,46.862559,-101.590801
31315,Wibaux Welcome Center,46.990292,-104.179287
31316,Hathaway Rest Area,46.269031,-106.306355
31317,Hysham Rest Area,46.219206,-107.251052
31318,Custer Rest Area,46.089937,-107.660189
31319,Okemos Rest Area,42.677244,-84.405327
31320,Portland Rest Area,42.84908,-84.855165
31321,Fruitport Rest Area,43.093473,-86.097551
31322,Saugatuck Rest Area,42.705708,-86.167978
31323,King of Prussia Service Plaza,40.089927,-75.371048
31324,Missouri Valley Rest Area,41.49875,-95.795795
31325,Missouri Valley Rest Area,41.496071,-95.866367
31326,Canyonville Rest Area,42.942,-123.2926
31327,Gold Hill Rest Area,42.41185,-123.128455
31328,Yreka Rest Area,41.8547,-122.5727
31329,Anderson Welcome Center,40.4325,-122.2858
31330,Pine Valley Rest Area,32.757946,-116.48399
31331,Ponce de Leon Rest Area,30.712901,-85.930074
31332,Pearlington Welcome Center,30.312941,-89.599648
31333,Breaux Bridge Welcome Center,30.341553,-91.722768
31334,Lordsburg Welcome Center,32.352276,-108.742856
31335,Blythe Rest Area,33.610134,-114.90085
31336,Sweetgrass Rest Area,48.993179,-111.960898
31337,Conrad Rest Area,48.181889,-111.931109
31338,Lima Rest Area,44.630934,-112.589264
31339,Dubois Rest Area,44.179706,-112.238677
31340,McCammon Rest Area,42.659996,-112.206658
31341,Springville Rest Area,40.187394,-111.641691
31342,Scipio Rest Area,39.255615,-112.117472
31343,Fillmore Rest Area,38.994338,-112.324461
31344,Cove Fort Rest Area,38.612887,-112.605455
31345,Beaver Rest Area,38.293006,-112.652907
31346,Mesquite Welcome Center,36.812139,-114.062637
31347,Lenwood Welcome Center,34.847071,-117.084527
31348,Black Canyon City Rest Area,34.186404,-112.134499
31349,Vicksburg Welcome Center,32.31163,-90.900457
31350,Paducah Welcome Center,37.051297,-88.653277
31351,Metropolis Welcome Center,37.159239,-88.679748
31352,Kaycee Rest Area,43.718533,-106.641751
31353,Wheatland Rest Area,42.234194,-105.01952
31354,Cheyenne Welcome Center,41.058196,-104.879056
31355,Fort Collins Welcome Center,40.565552,-105.007474
31356,Pueblo Rest Area,37.963825,-104.797099
31357,Trinidad Rest Area,37.225815,-104.494209
31358,Trinidad Welcome Center,37.169998,-104.510656
31359,Raton Welcome Center,36.885392,-104.439577
31360,Erwin Welcome Center,36.052784,-82.510353
31361,Kingsport Welcome Center,36.483453,-82.549326
31362,Summit Rest Area,45.402582,-97.014758
31363,Brookings Rest Area,44.154867,-96.756287
31364,Vermillion Welcome Center,42.784192,-96.78733
31365,Sioux City Welcome Center,42.491229,-96.417537
31366,Duluth Welcome Center,46.729456,-92.205494
31367,Northwood Welcome Center,43.445543,-93.354168
31368,Dows Rest Area,42.672232,-93.460252
31369,Lamoni Welcome Center,40.655596,-93.85375
31370,Lamoni Welcome Center,40.622934,-93.894777
31371,Laredo Welcome Center,27.759719,-99.437173
31372,Warsaw Rest Area,34.989647,-78.132648
31373,Memphis Welcome Center,35.149138,-90.054656
31374,West Memphis Welcome Center,35.164962,-90.172744
31375,Amarillo Welcome Center,35.191563,-101.725956
31376,Acomita Rest Area,35.072935,-107.555004
31377,Lupton Welcome Center,35.35304,-109.057842
31378,Wichita Falls Welcome Center,33.92392,-98.513344
31379,Boyce Welcome Center,31.362233,-92.591044
31380,Washington Rest Area,30.728283,-92.120217
31381,West Memphis Welcome Center,35.164962,-90.172744
31382,Beckley Service Plaza,37.802452,-81.212751
31383,Arriba Rest Area,39.281002,-103.271059
31384,Frisco Rest Area,39.527821,-106.218402
31385,Edwards Rest Area,39.645266,-106.590108
31386,Glenwood Springs Rest Area,39.614167,-107.139298
31387,Glenwood Springs Rest Area,39.560808,-107.252656
31388,Glenwood Springs Rest Area,39.559851,-107.291579
31389,Rifle Rest Area,39.525188,-107.786092
31390,Fruita Welcome Center,39.15376,-108.736866
31391,Emery Rest Area,38.85539,-110.908288
31392,Fremont Junction Rest Area,38.755146,-111.419184
31393,Sault Sainte Marie Welcome Center,46.492629,-84.37137
31394,Mackinaw City Welcome Center,45.77415,-84.733225
31395,Berea Welcome Center,37.596474,-84.312093
31396,Fort Myers Rest Area,26.549602,-81.792178
31397,Julesburg Welcome Center,40.966461,-102.251553
31398,Sterling Rest Area,40.620152,-103.179523
31399,Wiggins Rest Area,40.24508,-104.053864
31400,Williamstown Welcome Center,39.389739,-81.443167
31401,Beckley Service Plaza,37.802557,-81.21277
31402,Princeton Welcome Center,37.362923,-81.04524
31403,Statesville Rest Area,35.900505,-80.857349
31404,Delaware Water Gap Welcome Center,40.990667,-75.142454
31405,Hammond Welcome Center,41.570983,-87.462496
31406,Pine Bluffs Welcome Center,41.174112,-104.074751
31407,Laramie Rest Area,41.236843,-105.435827
31408,Elk Mountain Rest Area,41.630814,-106.285448
31409,Lyman Rest Area,41.365156,-110.297434
31410,Evanston Welcome Center,41.264864,-110.933251
31411,West Wendover Welcome Center,40.737039,-114.057396
31412,Wells Rest Area,41.078522,-114.569614
31413,Valmy Rest Area,40.788907,-117.12918
31414,Golconda Rest Area,41.016535,-117.573617
31415,Winnemucca Rest Area,40.78931,-117.995652
31416,Lovelock Rest Area,39.940807,-118.749915
31417,Alexandria Bay Welcome Center,44.295275,-75.976688
31418,Umatilla Welcome Center,45.924512,-119.326375
31419,Prosser Rest Area,46.220788,-119.790056
31420,Matamoras Welcome Center,41.359069,-74.709969
31421,Ontario Rest Area,44.050421,-116.974944
31422,Huntington Rest Area,44.495416,-117.366013
31423,La Grande Rest Area,45.342284,-118.235697
31424,Pendleton Rest Area,45.601791,-118.508267
31425,Berlin Rest Area,44.21279,-72.575339
31426,Beulah Welcome Center,44.527945,-104.205854
31427,Buffalo Rest Area,44.214213,-106.15815
31428,Sheridan Welcome Center,44.805928,-106.934987
31429,Hardin Welcome Center,45.739444,-107.586511
31430,Bozeman Rest Area,45.712201,-111.063776
31431,Anaconda Rest Area,46.092741,-112.808096
31432,Greenfield Rest Area,42.585966,-72.619877
31433,Littleton Welcome Center,44.327077,-71.872156
31434,Hammond Welcome Center,41.570983,-87.462496
31435,Kenosha Welcome Center,42.522423,-87.949454
31436,Medora Rest Area,46.895108,-103.381939
31437,Beach Welcome Center,46.927833,-104.008839
31438,Glendive Rest Area,46.898682,-105.019486
31439,Houlton Welcome Center,46.1413,-67.8428
31440,Columbus Welcome Center,32.571027,-84.963663
31441,Saint Louis Welcome Center,38.768293,-90.184397
31442,Gardiner Service Plaza,44.20768,-69.827863
31443,Yarmouth Welcome Center,43.809852,-70.162218
31444,Orin Rest Area,42.656181,-105.200504
31445,Moorcroft Rest Area,44.27564,-104.973799
31446,Sundance Rest Area,44.413551,-104.339373
31447,Chugwater Rest Area,41.757296,-104.828529
